{
  "brussels": { "lat": 50.8503, "lng": 4.3517, "label": "Brussels" },
  "antwerp": { "lat": 51.2194, "lng": 4.4025, "label": "Antwerp" },
  "ghent": { "lat": 51.0543, "lng": 3.7174, "label": "Ghent" },
  "liege": { "lat": 50.6326, "lng": 5.5797, "label": "Liege" },
  "bruges": { "lat": 51.2093, "lng": 3.2247, "label": "Bruges" },
  "namur": { "lat": 50.4674, "lng": 4.8720, "label": "Namur" },
  "leuven": { "lat": 50.8798, "lng": 4.7005, "label": "Leuven" },
  "charleroi": { "lat": 50.4108, "lng": 4.4446, "label": "Charleroi" },
  "mons": { "lat": 50.4542, "lng": 3.9523, "label": "Mons" },
  "mechelen": { "lat": 51.0259, "lng": 4.4776, "label": "Mechelen" },
  "hasselt": { "lat": 50.9311, "lng": 5.3378, "label": "Hasselt" },
  "kortrijk": { "lat": 50.8280, "lng": 3.2650, "label": "Kortrijk" },
  "ostend": { "lat": 51.2154, "lng": 2.9286, "label": "Ostend" },
  "turnhout": { "lat": 51.3227, "lng": 4.9484, "label": "Turnhout" },
  "wavre": { "lat": 50.7168, "lng": 4.6118, "label": "Wavre" },

  "amsterdam": { "lat": 52.3676, "lng": 4.9041, "label": "Amsterdam" },
  "rotterdam": { "lat": 51.9244, "lng": 4.4777, "label": "Rotterdam" },
  "the hague": { "lat": 52.0705, "lng": 4.3007, "label": "The Hague" },
  "den haag": { "lat": 52.0705, "lng": 4.3007, "label": "The Hague" },
  "utrecht": { "lat": 52.0907, "lng": 5.1214, "label": "Utrecht" },
  "eindhoven": { "lat": 51.4416, "lng": 5.4697, "label": "Eindhoven" },
  "groningen": { "lat": 53.2194, "lng": 6.5665, "label": "Groningen" },
  "delft": { "lat": 52.0116, "lng": 4.3571, "label": "Delft" },
  "leiden": { "lat": 52.1601, "lng": 4.4970, "label": "Leiden" },

  "luxembourg": { "lat": 49.6117, "lng": 6.1300, "label": "Luxembourg" },
  "luxembourg city": { "lat": 49.6117, "lng": 6.1300, "label": "Luxembourg City" },
  "esch-sur-alzette": { "lat": 49.4958, "lng": 5.9806, "label": "Esch-sur-Alzette" },

  "london": { "lat": 51.5074, "lng": -0.1278, "label": "London" },
  "manchester": { "lat": 53.4808, "lng": -2.2426, "label": "Manchester" },
  "birmingham": { "lat": 52.4862, "lng": -1.8904, "label": "Birmingham" },
  "edinburgh": { "lat": 55.9533, "lng": -3.1883, "label": "Edinburgh" },
  "glasgow": { "lat": 55.8642, "lng": -4.2518, "label": "Glasgow" },
  "bristol": { "lat": 51.4545, "lng": -2.5879, "label": "Bristol" },
  "cambridge": { "lat": 52.2053, "lng": 0.1218, "label": "Cambridge" },
  "oxford": { "lat": 51.7520, "lng": -1.2577, "label": "Oxford" },
  "belfast": { "lat": 54.5973, "lng": -5.9301, "label": "Belfast" },
  "cardiff": { "lat": 51.4816, "lng": -3.1791, "label": "Cardiff" },
  "leeds": { "lat": 53.8008, "lng": -1.5491, "label": "Leeds" },
  "liverpool": { "lat": 53.4084, "lng": -2.9916, "label": "Liverpool" },

  "paris": { "lat": 48.8566, "lng": 2.3522, "label": "Paris" },
  "lyon": { "lat": 45.7640, "lng": 4.8357, "label": "Lyon" },
  "marseille": { "lat": 43.2965, "lng": 5.3698, "label": "Marseille" },
  "toulouse": { "lat": 43.6047, "lng": 1.4442, "label": "Toulouse" },
  "lille": { "lat": 50.6292, "lng": 3.0573, "label": "Lille" },
  "strasbourg": { "lat": 48.5734, "lng": 7.7521, "label": "Strasbourg" },
  "nice": { "lat": 43.7102, "lng": 7.2620, "label": "Nice" },
  "bordeaux": { "lat": 44.8378, "lng": -0.5792, "label": "Bordeaux" },
  "rennes": { "lat": 48.1173, "lng": -1.6778, "label": "Rennes" },
  "nantes": { "lat": 47.2184, "lng": -1.5536, "label": "Nantes" },

  "berlin": { "lat": 52.5200, "lng": 13.4050, "label": "Berlin" },
  "munich": { "lat": 48.1351, "lng": 11.5820, "label": "Munich" },
  "frankfurt": { "lat": 50.1109, "lng": 8.6821, "label": "Frankfurt" },
  "hamburg": { "lat": 53.5511, "lng": 9.9937, "label": "Hamburg" },
  "cologne": { "lat": 50.9375, "lng": 6.9603, "label": "Cologne" },
  "düsseldorf": { "lat": 51.2277, "lng": 6.7735, "label": "Düsseldorf" },
  "dusseldorf": { "lat": 51.2277, "lng": 6.7735, "label": "Düsseldorf" },
  "stuttgart": { "lat": 48.7758, "lng": 9.1829, "label": "Stuttgart" },
  "bonn": { "lat": 50.7374, "lng": 7.0982, "label": "Bonn" },
  "hannover": { "lat": 52.3759, "lng": 9.7320, "label": "Hannover" },
  "nuremberg": { "lat": 49.4521, "lng": 11.0767, "label": "Nuremberg" },
  "dresden": { "lat": 51.0504, "lng": 13.7373, "label": "Dresden" },
  "leipzig": { "lat": 51.3397, "lng": 12.3731, "label": "Leipzig" },
  "walldorf": { "lat": 49.3065, "lng": 8.6425, "label": "Walldorf" },

  "vienna": { "lat": 48.2082, "lng": 16.3738, "label": "Vienna" },
  "wien": { "lat": 48.2082, "lng": 16.3738, "label": "Vienna" },
  "graz": { "lat": 47.0707, "lng": 15.4395, "label": "Graz" },
  "linz": { "lat": 48.3069, "lng": 14.2858, "label": "Linz" },
  "salzburg": { "lat": 47.8095, "lng": 13.0550, "label": "Salzburg" },
  "innsbruck": { "lat": 47.2692, "lng": 11.4041, "label": "Innsbruck" },

  "zurich": { "lat": 47.3769, "lng": 8.5417, "label": "Zurich" },
  "zürich": { "lat": 47.3769, "lng": 8.5417, "label": "Zurich" },
  "geneva": { "lat": 46.2044, "lng": 6.1432, "label": "Geneva" },
  "bern": { "lat": 46.9480, "lng": 7.4474, "label": "Bern" },
  "basel": { "lat": 47.5596, "lng": 7.5886, "label": "Basel" },
  "lausanne": { "lat": 46.5197, "lng": 6.6323, "label": "Lausanne" },

  "rome": { "lat": 41.9028, "lng": 12.4964, "label": "Rome" },
  "milan": { "lat": 45.4642, "lng": 9.1900, "label": "Milan" },
  "turin": { "lat": 45.0703, "lng": 7.6869, "label": "Turin" },
  "florence": { "lat": 43.7696, "lng": 11.2558, "label": "Florence" },
  "naples": { "lat": 40.8518, "lng": 14.2681, "label": "Naples" },
  "bologna": { "lat": 44.4949, "lng": 11.3426, "label": "Bologna" },
  "venice": { "lat": 45.4408, "lng": 12.3155, "label": "Venice" },

  "madrid": { "lat": 40.4168, "lng": -3.7038, "label": "Madrid" },
  "barcelona": { "lat": 41.3874, "lng": 2.1686, "label": "Barcelona" },
  "valencia": { "lat": 39.4699, "lng": -0.3763, "label": "Valencia" },
  "seville": { "lat": 37.3891, "lng": -5.9845, "label": "Seville" },
  "malaga": { "lat": 36.7213, "lng": -4.4214, "label": "Malaga" },
  "bilbao": { "lat": 43.2630, "lng": -2.9350, "label": "Bilbao" },

  "lisbon": { "lat": 38.7223, "lng": -9.1393, "label": "Lisbon" },
  "porto": { "lat": 41.1579, "lng": -8.6291, "label": "Porto" },

  "dublin": { "lat": 53.3498, "lng": -6.2603, "label": "Dublin" },
  "cork": { "lat": 51.8985, "lng": -8.4756, "label": "Cork" },

  "copenhagen": { "lat": 55.6761, "lng": 12.5683, "label": "Copenhagen" },
  "aarhus": { "lat": 56.1629, "lng": 10.2039, "label": "Aarhus" },

  "stockholm": { "lat": 59.3293, "lng": 18.0686, "label": "Stockholm" },
  "gothenburg": { "lat": 57.7089, "lng": 11.9746, "label": "Gothenburg" },
  "malmö": { "lat": 55.6049, "lng": 13.0038, "label": "Malmö" },
  "malmo": { "lat": 55.6049, "lng": 13.0038, "label": "Malmö" },

  "oslo": { "lat": 59.9139, "lng": 10.7522, "label": "Oslo" },
  "bergen": { "lat": 60.3913, "lng": 5.3221, "label": "Bergen" },

  "helsinki": { "lat": 60.1699, "lng": 24.9384, "label": "Helsinki" },
  "espoo": { "lat": 60.2055, "lng": 24.6559, "label": "Espoo" },
  "tampere": { "lat": 61.4978, "lng": 23.7610, "label": "Tampere" },

  "reykjavik": { "lat": 64.1466, "lng": -21.9426, "label": "Reykjavik" },

  "tallinn": { "lat": 59.4370, "lng": 24.7536, "label": "Tallinn" },
  "riga": { "lat": 56.9496, "lng": 24.1052, "label": "Riga" },
  "vilnius": { "lat": 54.6872, "lng": 25.2797, "label": "Vilnius" },
  "kaunas": { "lat": 54.8985, "lng": 23.9036, "label": "Kaunas" },

  "warsaw": { "lat": 52.2297, "lng": 21.0122, "label": "Warsaw" },
  "krakow": { "lat": 50.0647, "lng": 19.9450, "label": "Krakow" },
  "wroclaw": { "lat": 51.1079, "lng": 17.0385, "label": "Wroclaw" },
  "gdansk": { "lat": 54.3520, "lng": 18.6466, "label": "Gdansk" },
  "poznan": { "lat": 52.4064, "lng": 16.9252, "label": "Poznan" },

  "prague": { "lat": 50.0755, "lng": 14.4378, "label": "Prague" },
  "brno": { "lat": 49.1951, "lng": 16.6068, "label": "Brno" },

  "bratislava": { "lat": 48.1486, "lng": 17.1077, "label": "Bratislava" },

  "budapest": { "lat": 47.4979, "lng": 19.0402, "label": "Budapest" },

  "bucharest": { "lat": 44.4268, "lng": 26.1025, "label": "Bucharest" },
  "cluj-napoca": { "lat": 46.7712, "lng": 23.6236, "label": "Cluj-Napoca" },

  "sofia": { "lat": 42.6977, "lng": 23.3219, "label": "Sofia" },

  "athens": { "lat": 37.9838, "lng": 23.7275, "label": "Athens" },
  "thessaloniki": { "lat": 40.6401, "lng": 22.9444, "label": "Thessaloniki" },

  "istanbul": { "lat": 41.0082, "lng": 28.9784, "label": "Istanbul" },
  "ankara": { "lat": 39.9334, "lng": 32.8597, "label": "Ankara" },
  "izmir": { "lat": 38.4237, "lng": 27.1428, "label": "Izmir" },

  "belgrade": { "lat": 44.7866, "lng": 20.4489, "label": "Belgrade" },
  "zagreb": { "lat": 45.8150, "lng": 15.9819, "label": "Zagreb" },
  "ljubljana": { "lat": 46.0569, "lng": 14.5058, "label": "Ljubljana" },
  "sarajevo": { "lat": 43.8563, "lng": 18.4131, "label": "Sarajevo" },
  "skopje": { "lat": 41.9973, "lng": 21.4280, "label": "Skopje" },
  "podgorica": { "lat": 42.4304, "lng": 19.2594, "label": "Podgorica" },
  "tirana": { "lat": 41.3275, "lng": 19.8187, "label": "Tirana" },
  "pristina": { "lat": 42.6629, "lng": 21.1655, "label": "Pristina" },

  "kyiv": { "lat": 50.4501, "lng": 30.5234, "label": "Kyiv" },
  "kiev": { "lat": 50.4501, "lng": 30.5234, "label": "Kyiv" },
  "kharkiv": { "lat": 49.9935, "lng": 36.2304, "label": "Kharkiv" },
  "lviv": { "lat": 49.8397, "lng": 24.0297, "label": "Lviv" },
  "odesa": { "lat": 46.4825, "lng": 30.7233, "label": "Odesa" },

  "moscow": { "lat": 55.7558, "lng": 37.6173, "label": "Moscow" },
  "st. petersburg": { "lat": 59.9343, "lng": 30.3351, "label": "St. Petersburg" },
  "saint petersburg": { "lat": 59.9343, "lng": 30.3351, "label": "St. Petersburg" },
  "novosibirsk": { "lat": 55.0084, "lng": 82.9357, "label": "Novosibirsk" },
  "yekaterinburg": { "lat": 56.8389, "lng": 60.6057, "label": "Yekaterinburg" },

  "minsk": { "lat": 53.9006, "lng": 27.5590, "label": "Minsk" },
  "chisinau": { "lat": 47.0105, "lng": 28.8638, "label": "Chisinau" },
  "tbilisi": { "lat": 41.7151, "lng": 44.8271, "label": "Tbilisi" },
  "yerevan": { "lat": 40.1792, "lng": 44.4991, "label": "Yerevan" },
  "baku": { "lat": 40.4093, "lng": 49.8671, "label": "Baku" },

  "nicosia": { "lat": 35.1856, "lng": 33.3823, "label": "Nicosia" },
  "valletta": { "lat": 35.8989, "lng": 14.5146, "label": "Valletta" },
  "monaco": { "lat": 43.7384, "lng": 7.4246, "label": "Monaco" },
  "andorra la vella": { "lat": 42.5063, "lng": 1.5218, "label": "Andorra la Vella" },
  "san marino": { "lat": 43.9424, "lng": 12.4578, "label": "San Marino" },

  "new york": { "lat": 40.7128, "lng": -74.0060, "label": "New York" },
  "new york city": { "lat": 40.7128, "lng": -74.0060, "label": "New York City" },
  "nyc": { "lat": 40.7128, "lng": -74.0060, "label": "New York City" },
  "san francisco": { "lat": 37.7749, "lng": -122.4194, "label": "San Francisco" },
  "sf": { "lat": 37.7749, "lng": -122.4194, "label": "San Francisco" },
  "washington dc": { "lat": 38.9072, "lng": -77.0369, "label": "Washington DC" },
  "washington d.c.": { "lat": 38.9072, "lng": -77.0369, "label": "Washington DC" },
  "washington": { "lat": 38.9072, "lng": -77.0369, "label": "Washington DC" },
  "los angeles": { "lat": 34.0522, "lng": -118.2437, "label": "Los Angeles" },
  "la": { "lat": 34.0522, "lng": -118.2437, "label": "Los Angeles" },
  "seattle": { "lat": 47.6062, "lng": -122.3321, "label": "Seattle" },
  "boston": { "lat": 42.3601, "lng": -71.0589, "label": "Boston" },
  "chicago": { "lat": 41.8781, "lng": -87.6298, "label": "Chicago" },
  "austin": { "lat": 30.2672, "lng": -97.7431, "label": "Austin" },
  "atlanta": { "lat": 33.7490, "lng": -84.3880, "label": "Atlanta" },
  "denver": { "lat": 39.7392, "lng": -104.9903, "label": "Denver" },
  "dallas": { "lat": 32.7767, "lng": -96.7970, "label": "Dallas" },
  "houston": { "lat": 29.7604, "lng": -95.3698, "label": "Houston" },
  "miami": { "lat": 25.7617, "lng": -80.1918, "label": "Miami" },
  "phoenix": { "lat": 33.4484, "lng": -112.0740, "label": "Phoenix" },
  "philadelphia": { "lat": 39.9526, "lng": -75.1652, "label": "Philadelphia" },
  "san diego": { "lat": 32.7157, "lng": -117.1611, "label": "San Diego" },
  "san jose": { "lat": 37.3382, "lng": -121.8863, "label": "San Jose" },
  "san antonio": { "lat": 29.4241, "lng": -98.4936, "label": "San Antonio" },
  "portland": { "lat": 45.5152, "lng": -122.6784, "label": "Portland" },
  "minneapolis": { "lat": 44.9778, "lng": -93.2650, "label": "Minneapolis" },
  "detroit": { "lat": 42.3314, "lng": -83.0458, "label": "Detroit" },
  "pittsburgh": { "lat": 40.4406, "lng": -79.9959, "label": "Pittsburgh" },
  "las vegas": { "lat": 36.1699, "lng": -115.1398, "label": "Las Vegas" },
  "salt lake city": { "lat": 40.7608, "lng": -111.8910, "label": "Salt Lake City" },
  "charlotte": { "lat": 35.2271, "lng": -80.8431, "label": "Charlotte" },
  "nashville": { "lat": 36.1627, "lng": -86.7816, "label": "Nashville" },
  "raleigh": { "lat": 35.7796, "lng": -78.6382, "label": "Raleigh" },
  "columbus": { "lat": 39.9612, "lng": -82.9988, "label": "Columbus" },
  "indianapolis": { "lat": 39.7684, "lng": -86.1581, "label": "Indianapolis" },
  "kansas city": { "lat": 39.0997, "lng": -94.5786, "label": "Kansas City" },
  "baltimore": { "lat": 39.2904, "lng": -76.6122, "label": "Baltimore" },
  "fort meade": { "lat": 39.1087, "lng": -76.7432, "label": "Fort Meade" },
  "reston": { "lat": 38.9586, "lng": -77.3570, "label": "Reston" },
  "arlington": { "lat": 38.8816, "lng": -77.0910, "label": "Arlington" },
  "redmond": { "lat": 47.6740, "lng": -122.1215, "label": "Redmond" },
  "mountain view": { "lat": 37.3861, "lng": -122.0839, "label": "Mountain View" },
  "cupertino": { "lat": 37.3230, "lng": -122.0322, "label": "Cupertino" },
  "menlo park": { "lat": 37.4530, "lng": -122.1817, "label": "Menlo Park" },
  "santa clara": { "lat": 37.3541, "lng": -121.9552, "label": "Santa Clara" },
  "sunnyvale": { "lat": 37.3688, "lng": -122.0363, "label": "Sunnyvale" },
  "palo alto": { "lat": 37.4419, "lng": -122.1430, "label": "Palo Alto" },
  "milpitas": { "lat": 37.4323, "lng": -121.8996, "label": "Milpitas" },

  "ottawa": { "lat": 45.4215, "lng": -75.6972, "label": "Ottawa" },
  "toronto": { "lat": 43.6532, "lng": -79.3832, "label": "Toronto" },
  "montreal": { "lat": 45.5017, "lng": -73.5673, "label": "Montreal" },
  "vancouver": { "lat": 49.2827, "lng": -123.1207, "label": "Vancouver" },
  "calgary": { "lat": 51.0447, "lng": -114.0719, "label": "Calgary" },
  "waterloo": { "lat": 43.4643, "lng": -80.5204, "label": "Waterloo" },

  "mexico city": { "lat": 19.4326, "lng": -99.1332, "label": "Mexico City" },
  "guadalajara": { "lat": 20.6597, "lng": -103.3496, "label": "Guadalajara" },
  "monterrey": { "lat": 25.6866, "lng": -100.3161, "label": "Monterrey" },

  "sao paulo": { "lat": -23.5505, "lng": -46.6333, "label": "Sao Paulo" },
  "são paulo": { "lat": -23.5505, "lng": -46.6333, "label": "Sao Paulo" },
  "rio de janeiro": { "lat": -22.9068, "lng": -43.1729, "label": "Rio de Janeiro" },
  "brasilia": { "lat": -15.7975, "lng": -47.8919, "label": "Brasilia" },
  "buenos aires": { "lat": -34.6037, "lng": -58.3816, "label": "Buenos Aires" },
  "bogota": { "lat": 4.7110, "lng": -74.0721, "label": "Bogota" },
  "lima": { "lat": -12.0464, "lng": -77.0428, "label": "Lima" },
  "santiago": { "lat": -33.4489, "lng": -70.6693, "label": "Santiago" },
  "medellin": { "lat": 6.2476, "lng": -75.5658, "label": "Medellin" },
  "montevideo": { "lat": -34.9011, "lng": -56.1645, "label": "Montevideo" },
  "quito": { "lat": -0.1807, "lng": -78.4678, "label": "Quito" },
  "caracas": { "lat": 10.4806, "lng": -66.9036, "label": "Caracas" },

  "tokyo": { "lat": 35.6762, "lng": 139.6503, "label": "Tokyo" },
  "osaka": { "lat": 34.6937, "lng": 135.5023, "label": "Osaka" },
  "yokohama": { "lat": 35.4437, "lng": 139.6380, "label": "Yokohama" },
  "kyoto": { "lat": 35.0116, "lng": 135.7681, "label": "Kyoto" },
  "nagoya": { "lat": 35.1815, "lng": 136.9066, "label": "Nagoya" },

  "beijing": { "lat": 39.9042, "lng": 116.4074, "label": "Beijing" },
  "shanghai": { "lat": 31.2304, "lng": 121.4737, "label": "Shanghai" },
  "shenzhen": { "lat": 22.5431, "lng": 114.0579, "label": "Shenzhen" },
  "guangzhou": { "lat": 23.1291, "lng": 113.2644, "label": "Guangzhou" },
  "hangzhou": { "lat": 30.2741, "lng": 120.1551, "label": "Hangzhou" },
  "chengdu": { "lat": 30.5728, "lng": 104.0668, "label": "Chengdu" },
  "hong kong": { "lat": 22.3193, "lng": 114.1694, "label": "Hong Kong" },
  "macau": { "lat": 22.1987, "lng": 113.5439, "label": "Macau" },
  "wuhan": { "lat": 30.5928, "lng": 114.3055, "label": "Wuhan" },
  "nanjing": { "lat": 32.0603, "lng": 118.7969, "label": "Nanjing" },
  "xi'an": { "lat": 34.3416, "lng": 108.9398, "label": "Xi'an" },
  "tianjin": { "lat": 39.3434, "lng": 117.3616, "label": "Tianjin" },

  "seoul": { "lat": 37.5665, "lng": 126.9780, "label": "Seoul" },
  "busan": { "lat": 35.1796, "lng": 129.0756, "label": "Busan" },
  "incheon": { "lat": 37.4563, "lng": 126.7052, "label": "Incheon" },

  "taipei": { "lat": 25.0330, "lng": 121.5654, "label": "Taipei" },
  "hsinchu": { "lat": 24.8138, "lng": 120.9675, "label": "Hsinchu" },
  "kaohsiung": { "lat": 22.6273, "lng": 120.3014, "label": "Kaohsiung" },

  "singapore": { "lat": 1.3521, "lng": 103.8198, "label": "Singapore" },

  "kuala lumpur": { "lat": 3.1390, "lng": 101.6869, "label": "Kuala Lumpur" },
  "cyberjaya": { "lat": 2.9264, "lng": 101.6424, "label": "Cyberjaya" },

  "bangkok": { "lat": 13.7563, "lng": 100.5018, "label": "Bangkok" },
  "jakarta": { "lat": -6.2088, "lng": 106.8456, "label": "Jakarta" },
  "manila": { "lat": 14.5995, "lng": 120.9842, "label": "Manila" },
  "ho chi minh city": { "lat": 10.8231, "lng": 106.6297, "label": "Ho Chi Minh City" },
  "hanoi": { "lat": 21.0278, "lng": 105.8342, "label": "Hanoi" },
  "phnom penh": { "lat": 11.5564, "lng": 104.9282, "label": "Phnom Penh" },
  "yangon": { "lat": 16.8661, "lng": 96.1951, "label": "Yangon" },

  "mumbai": { "lat": 19.0760, "lng": 72.8777, "label": "Mumbai" },
  "new delhi": { "lat": 28.6139, "lng": 77.2090, "label": "New Delhi" },
  "delhi": { "lat": 28.7041, "lng": 77.1025, "label": "Delhi" },
  "bangalore": { "lat": 12.9716, "lng": 77.5946, "label": "Bangalore" },
  "bengaluru": { "lat": 12.9716, "lng": 77.5946, "label": "Bengaluru" },
  "hyderabad": { "lat": 17.3850, "lng": 78.4867, "label": "Hyderabad" },
  "chennai": { "lat": 13.0827, "lng": 80.2707, "label": "Chennai" },
  "pune": { "lat": 18.5204, "lng": 73.8567, "label": "Pune" },
  "kolkata": { "lat": 22.5726, "lng": 88.3639, "label": "Kolkata" },
  "ahmedabad": { "lat": 23.0225, "lng": 72.5714, "label": "Ahmedabad" },
  "gurugram": { "lat": 28.4595, "lng": 77.0266, "label": "Gurugram" },
  "noida": { "lat": 28.5355, "lng": 77.3910, "label": "Noida" },

  "islamabad": { "lat": 33.6844, "lng": 73.0479, "label": "Islamabad" },
  "karachi": { "lat": 24.8607, "lng": 67.0011, "label": "Karachi" },
  "lahore": { "lat": 31.5204, "lng": 74.3587, "label": "Lahore" },
  "dhaka": { "lat": 23.8103, "lng": 90.4125, "label": "Dhaka" },
  "colombo": { "lat": 6.9271, "lng": 79.8612, "label": "Colombo" },
  "kathmandu": { "lat": 27.7172, "lng": 85.3240, "label": "Kathmandu" },

  "tel aviv": { "lat": 32.0853, "lng": 34.7818, "label": "Tel Aviv" },
  "jerusalem": { "lat": 31.7683, "lng": 35.2137, "label": "Jerusalem" },
  "haifa": { "lat": 32.7940, "lng": 34.9896, "label": "Haifa" },
  "beer sheva": { "lat": 31.2530, "lng": 34.7915, "label": "Beer Sheva" },

  "dubai": { "lat": 25.2048, "lng": 55.2708, "label": "Dubai" },
  "abu dhabi": { "lat": 24.4539, "lng": 54.3773, "label": "Abu Dhabi" },
  "riyadh": { "lat": 24.7136, "lng": 46.6753, "label": "Riyadh" },
  "jeddah": { "lat": 21.4858, "lng": 39.1925, "label": "Jeddah" },
  "doha": { "lat": 25.2854, "lng": 51.5310, "label": "Doha" },
  "muscat": { "lat": 23.5880, "lng": 58.3829, "label": "Muscat" },
  "manama": { "lat": 26.2285, "lng": 50.5860, "label": "Manama" },
  "kuwait city": { "lat": 29.3759, "lng": 47.9774, "label": "Kuwait City" },
  "tehran": { "lat": 35.6892, "lng": 51.3890, "label": "Tehran" },
  "baghdad": { "lat": 33.3152, "lng": 44.3661, "label": "Baghdad" },
  "amman": { "lat": 31.9454, "lng": 35.9284, "label": "Amman" },
  "beirut": { "lat": 33.8938, "lng": 35.5018, "label": "Beirut" },
  "damascus": { "lat": 33.5138, "lng": 36.2765, "label": "Damascus" },

  "pyongyang": { "lat": 39.0392, "lng": 125.7625, "label": "Pyongyang" },
  "ulaanbaatar": { "lat": 47.8864, "lng": 106.9057, "label": "Ulaanbaatar" },
  "astana": { "lat": 51.1694, "lng": 71.4491, "label": "Astana" },
  "tashkent": { "lat": 41.2995, "lng": 69.2401, "label": "Tashkent" },

  "sydney": { "lat": -33.8688, "lng": 151.2093, "label": "Sydney" },
  "melbourne": { "lat": -37.8136, "lng": 144.9631, "label": "Melbourne" },
  "brisbane": { "lat": -27.4698, "lng": 153.0251, "label": "Brisbane" },
  "perth": { "lat": -31.9505, "lng": 115.8605, "label": "Perth" },
  "adelaide": { "lat": -34.9285, "lng": 138.6007, "label": "Adelaide" },
  "canberra": { "lat": -35.2809, "lng": 149.1300, "label": "Canberra" },
  "auckland": { "lat": -36.8485, "lng": 174.7633, "label": "Auckland" },
  "wellington": { "lat": -41.2865, "lng": 174.7762, "label": "Wellington" },

  "nairobi": { "lat": -1.2921, "lng": 36.8219, "label": "Nairobi" },
  "lagos": { "lat": 6.5244, "lng": 3.3792, "label": "Lagos" },
  "abuja": { "lat": 9.0765, "lng": 7.3986, "label": "Abuja" },
  "cape town": { "lat": -33.9249, "lng": 18.4241, "label": "Cape Town" },
  "johannesburg": { "lat": -26.2041, "lng": 28.0473, "label": "Johannesburg" },
  "pretoria": { "lat": -25.7479, "lng": 28.2293, "label": "Pretoria" },
  "cairo": { "lat": 30.0444, "lng": 31.2357, "label": "Cairo" },
  "casablanca": { "lat": 33.5731, "lng": -7.5898, "label": "Casablanca" },
  "rabat": { "lat": 34.0209, "lng": -6.8416, "label": "Rabat" },
  "tunis": { "lat": 36.8065, "lng": 10.1815, "label": "Tunis" },
  "algiers": { "lat": 36.7538, "lng": 3.0588, "label": "Algiers" },
  "accra": { "lat": 5.6037, "lng": -0.1870, "label": "Accra" },
  "addis ababa": { "lat": 9.0250, "lng": 38.7469, "label": "Addis Ababa" },
  "dar es salaam": { "lat": -6.7924, "lng": 39.2083, "label": "Dar es Salaam" },
  "kigali": { "lat": -1.9403, "lng": 29.8739, "label": "Kigali" },
  "kampala": { "lat": 0.3476, "lng": 32.5825, "label": "Kampala" },
  "dakar": { "lat": 14.7167, "lng": -17.4677, "label": "Dakar" },
  "luanda": { "lat": -8.8390, "lng": 13.2894, "label": "Luanda" },
  "harare": { "lat": -17.8252, "lng": 31.0335, "label": "Harare" },
  "maputo": { "lat": -25.9692, "lng": 32.5732, "label": "Maputo" },

  "belgium": { "lat": 50.8503, "lng": 4.3517, "label": "Belgium" },
  "netherlands": { "lat": 52.3676, "lng": 4.9041, "label": "Netherlands" },
  "the netherlands": { "lat": 52.3676, "lng": 4.9041, "label": "Netherlands" },
  "holland": { "lat": 52.3676, "lng": 4.9041, "label": "Netherlands" },
  "united kingdom": { "lat": 51.5074, "lng": -0.1278, "label": "United Kingdom" },
  "uk": { "lat": 51.5074, "lng": -0.1278, "label": "United Kingdom" },
  "england": { "lat": 51.5074, "lng": -0.1278, "label": "England" },
  "scotland": { "lat": 55.9533, "lng": -3.1883, "label": "Scotland" },
  "wales": { "lat": 51.4816, "lng": -3.1791, "label": "Wales" },
  "northern ireland": { "lat": 54.5973, "lng": -5.9301, "label": "Northern Ireland" },
  "france": { "lat": 48.8566, "lng": 2.3522, "label": "France" },
  "germany": { "lat": 52.5200, "lng": 13.4050, "label": "Germany" },
  "austria": { "lat": 48.2082, "lng": 16.3738, "label": "Austria" },
  "switzerland": { "lat": 46.9480, "lng": 7.4474, "label": "Switzerland" },
  "italy": { "lat": 41.9028, "lng": 12.4964, "label": "Italy" },
  "spain": { "lat": 40.4168, "lng": -3.7038, "label": "Spain" },
  "portugal": { "lat": 38.7223, "lng": -9.1393, "label": "Portugal" },
  "ireland": { "lat": 53.3498, "lng": -6.2603, "label": "Ireland" },
  "denmark": { "lat": 55.6761, "lng": 12.5683, "label": "Denmark" },
  "sweden": { "lat": 59.3293, "lng": 18.0686, "label": "Sweden" },
  "norway": { "lat": 59.9139, "lng": 10.7522, "label": "Norway" },
  "finland": { "lat": 60.1699, "lng": 24.9384, "label": "Finland" },
  "iceland": { "lat": 64.1466, "lng": -21.9426, "label": "Iceland" },
  "estonia": { "lat": 59.4370, "lng": 24.7536, "label": "Estonia" },
  "latvia": { "lat": 56.9496, "lng": 24.1052, "label": "Latvia" },
  "lithuania": { "lat": 54.6872, "lng": 25.2797, "label": "Lithuania" },
  "poland": { "lat": 52.2297, "lng": 21.0122, "label": "Poland" },
  "czech republic": { "lat": 50.0755, "lng": 14.4378, "label": "Czech Republic" },
  "czechia": { "lat": 50.0755, "lng": 14.4378, "label": "Czechia" },
  "slovakia": { "lat": 48.1486, "lng": 17.1077, "label": "Slovakia" },
  "hungary": { "lat": 47.4979, "lng": 19.0402, "label": "Hungary" },
  "romania": { "lat": 44.4268, "lng": 26.1025, "label": "Romania" },
  "bulgaria": { "lat": 42.6977, "lng": 23.3219, "label": "Bulgaria" },
  "greece": { "lat": 37.9838, "lng": 23.7275, "label": "Greece" },
  "turkey": { "lat": 39.9334, "lng": 32.8597, "label": "Turkey" },
  "croatia": { "lat": 45.8150, "lng": 15.9819, "label": "Croatia" },
  "serbia": { "lat": 44.7866, "lng": 20.4489, "label": "Serbia" },
  "slovenia": { "lat": 46.0569, "lng": 14.5058, "label": "Slovenia" },
  "bosnia": { "lat": 43.8563, "lng": 18.4131, "label": "Bosnia and Herzegovina" },
  "bosnia and herzegovina": { "lat": 43.8563, "lng": 18.4131, "label": "Bosnia and Herzegovina" },
  "north macedonia": { "lat": 41.9973, "lng": 21.4280, "label": "North Macedonia" },
  "macedonia": { "lat": 41.9973, "lng": 21.4280, "label": "North Macedonia" },
  "montenegro": { "lat": 42.4304, "lng": 19.2594, "label": "Montenegro" },
  "albania": { "lat": 41.3275, "lng": 19.8187, "label": "Albania" },
  "kosovo": { "lat": 42.6629, "lng": 21.1655, "label": "Kosovo" },
  "cyprus": { "lat": 35.1856, "lng": 33.3823, "label": "Cyprus" },
  "malta": { "lat": 35.8989, "lng": 14.5146, "label": "Malta" },
  "ukraine": { "lat": 50.4501, "lng": 30.5234, "label": "Ukraine" },
  "russia": { "lat": 55.7558, "lng": 37.6173, "label": "Russia" },
  "belarus": { "lat": 53.9006, "lng": 27.5590, "label": "Belarus" },
  "moldova": { "lat": 47.0105, "lng": 28.8638, "label": "Moldova" },
  "georgia": { "lat": 41.7151, "lng": 44.8271, "label": "Georgia" },
  "armenia": { "lat": 40.1792, "lng": 44.4991, "label": "Armenia" },
  "azerbaijan": { "lat": 40.4093, "lng": 49.8671, "label": "Azerbaijan" },

  "united states": { "lat": 38.9072, "lng": -77.0369, "label": "United States" },
  "usa": { "lat": 38.9072, "lng": -77.0369, "label": "United States" },
  "us": { "lat": 38.9072, "lng": -77.0369, "label": "United States" },
  "canada": { "lat": 45.4215, "lng": -75.6972, "label": "Canada" },
  "mexico": { "lat": 19.4326, "lng": -99.1332, "label": "Mexico" },
  "brazil": { "lat": -15.7975, "lng": -47.8919, "label": "Brazil" },
  "argentina": { "lat": -34.6037, "lng": -58.3816, "label": "Argentina" },
  "colombia": { "lat": 4.7110, "lng": -74.0721, "label": "Colombia" },
  "peru": { "lat": -12.0464, "lng": -77.0428, "label": "Peru" },
  "chile": { "lat": -33.4489, "lng": -70.6693, "label": "Chile" },
  "venezuela": { "lat": 10.4806, "lng": -66.9036, "label": "Venezuela" },
  "ecuador": { "lat": -0.1807, "lng": -78.4678, "label": "Ecuador" },
  "uruguay": { "lat": -34.9011, "lng": -56.1645, "label": "Uruguay" },
  "paraguay": { "lat": -25.2637, "lng": -57.5759, "label": "Paraguay" },
  "bolivia": { "lat": -16.4897, "lng": -68.1193, "label": "Bolivia" },
  "costa rica": { "lat": 9.9281, "lng": -84.0907, "label": "Costa Rica" },
  "panama": { "lat": 8.9836, "lng": -79.5197, "label": "Panama" },
  "cuba": { "lat": 23.1136, "lng": -82.3666, "label": "Cuba" },

  "china": { "lat": 39.9042, "lng": 116.4074, "label": "China" },
  "japan": { "lat": 35.6762, "lng": 139.6503, "label": "Japan" },
  "south korea": { "lat": 37.5665, "lng": 126.9780, "label": "South Korea" },
  "north korea": { "lat": 39.0392, "lng": 125.7625, "label": "North Korea" },
  "dprk": { "lat": 39.0392, "lng": 125.7625, "label": "North Korea" },
  "taiwan": { "lat": 25.0330, "lng": 121.5654, "label": "Taiwan" },
  "india": { "lat": 28.6139, "lng": 77.2090, "label": "India" },
  "pakistan": { "lat": 33.6844, "lng": 73.0479, "label": "Pakistan" },
  "bangladesh": { "lat": 23.8103, "lng": 90.4125, "label": "Bangladesh" },
  "sri lanka": { "lat": 6.9271, "lng": 79.8612, "label": "Sri Lanka" },
  "nepal": { "lat": 27.7172, "lng": 85.3240, "label": "Nepal" },
  "malaysia": { "lat": 3.1390, "lng": 101.6869, "label": "Malaysia" },
  "indonesia": { "lat": -6.2088, "lng": 106.8456, "label": "Indonesia" },
  "thailand": { "lat": 13.7563, "lng": 100.5018, "label": "Thailand" },
  "vietnam": { "lat": 21.0278, "lng": 105.8342, "label": "Vietnam" },
  "philippines": { "lat": 14.5995, "lng": 120.9842, "label": "Philippines" },
  "myanmar": { "lat": 19.7633, "lng": 96.0785, "label": "Myanmar" },
  "cambodia": { "lat": 11.5564, "lng": 104.9282, "label": "Cambodia" },
  "mongolia": { "lat": 47.8864, "lng": 106.9057, "label": "Mongolia" },
  "kazakhstan": { "lat": 51.1694, "lng": 71.4491, "label": "Kazakhstan" },
  "uzbekistan": { "lat": 41.2995, "lng": 69.2401, "label": "Uzbekistan" },

  "iran": { "lat": 35.6892, "lng": 51.3890, "label": "Iran" },
  "iraq": { "lat": 33.3152, "lng": 44.3661, "label": "Iraq" },
  "israel": { "lat": 32.0853, "lng": 34.7818, "label": "Israel" },
  "palestine": { "lat": 31.9522, "lng": 35.2332, "label": "Palestine" },
  "jordan": { "lat": 31.9454, "lng": 35.9284, "label": "Jordan" },
  "lebanon": { "lat": 33.8938, "lng": 35.5018, "label": "Lebanon" },
  "syria": { "lat": 33.5138, "lng": 36.2765, "label": "Syria" },
  "saudi arabia": { "lat": 24.7136, "lng": 46.6753, "label": "Saudi Arabia" },
  "uae": { "lat": 24.4539, "lng": 54.3773, "label": "United Arab Emirates" },
  "united arab emirates": { "lat": 24.4539, "lng": 54.3773, "label": "United Arab Emirates" },
  "qatar": { "lat": 25.2854, "lng": 51.5310, "label": "Qatar" },
  "oman": { "lat": 23.5880, "lng": 58.3829, "label": "Oman" },
  "bahrain": { "lat": 26.2285, "lng": 50.5860, "label": "Bahrain" },
  "kuwait": { "lat": 29.3759, "lng": 47.9774, "label": "Kuwait" },
  "yemen": { "lat": 15.3694, "lng": 44.1910, "label": "Yemen" },
  "afghanistan": { "lat": 34.5553, "lng": 69.2075, "label": "Afghanistan" },

  "australia": { "lat": -35.2809, "lng": 149.1300, "label": "Australia" },
  "new zealand": { "lat": -41.2865, "lng": 174.7762, "label": "New Zealand" },

  "south africa": { "lat": -25.7479, "lng": 28.2293, "label": "South Africa" },
  "nigeria": { "lat": 9.0765, "lng": 7.3986, "label": "Nigeria" },
  "kenya": { "lat": -1.2921, "lng": 36.8219, "label": "Kenya" },
  "egypt": { "lat": 30.0444, "lng": 31.2357, "label": "Egypt" },
  "morocco": { "lat": 34.0209, "lng": -6.8416, "label": "Morocco" },
  "tunisia": { "lat": 36.8065, "lng": 10.1815, "label": "Tunisia" },
  "algeria": { "lat": 36.7538, "lng": 3.0588, "label": "Algeria" },
  "libya": { "lat": 32.9024, "lng": 13.1800, "label": "Libya" },
  "ghana": { "lat": 5.6037, "lng": -0.1870, "label": "Ghana" },
  "ethiopia": { "lat": 9.0250, "lng": 38.7469, "label": "Ethiopia" },
  "tanzania": { "lat": -6.7924, "lng": 39.2083, "label": "Tanzania" },
  "rwanda": { "lat": -1.9403, "lng": 29.8739, "label": "Rwanda" },
  "uganda": { "lat": 0.3476, "lng": 32.5825, "label": "Uganda" },
  "senegal": { "lat": 14.7167, "lng": -17.4677, "label": "Senegal" },
  "angola": { "lat": -8.8390, "lng": 13.2894, "label": "Angola" },
  "zimbabwe": { "lat": -17.8252, "lng": 31.0335, "label": "Zimbabwe" },
  "mozambique": { "lat": -25.9692, "lng": 32.5732, "label": "Mozambique" },
  "cameroon": { "lat": 3.8480, "lng": 11.5021, "label": "Cameroon" },
  "ivory coast": { "lat": 6.8276, "lng": -5.2893, "label": "Ivory Coast" },
  "sudan": { "lat": 15.5007, "lng": 32.5599, "label": "Sudan" },
  "somalia": { "lat": 2.0469, "lng": 45.3182, "label": "Somalia" },
  "democratic republic of congo": { "lat": -4.4419, "lng": 15.2663, "label": "DR Congo" },
  "congo": { "lat": -4.2634, "lng": 15.2429, "label": "Congo" },

  "microsoft": { "lat": 47.6740, "lng": -122.1215, "label": "Microsoft (Redmond, WA)" },
  "google": { "lat": 37.3861, "lng": -122.0839, "label": "Google (Mountain View, CA)" },
  "alphabet": { "lat": 37.3861, "lng": -122.0839, "label": "Alphabet (Mountain View, CA)" },
  "apple": { "lat": 37.3346, "lng": -122.0090, "label": "Apple (Cupertino, CA)" },
  "meta": { "lat": 37.4530, "lng": -122.1817, "label": "Meta (Menlo Park, CA)" },
  "facebook": { "lat": 37.4530, "lng": -122.1817, "label": "Meta (Menlo Park, CA)" },
  "amazon": { "lat": 47.6062, "lng": -122.3321, "label": "Amazon (Seattle, WA)" },
  "aws": { "lat": 47.6062, "lng": -122.3321, "label": "AWS (Seattle, WA)" },
  "crowdstrike": { "lat": 30.2672, "lng": -97.7431, "label": "CrowdStrike (Austin, TX)" },
  "palo alto networks": { "lat": 37.3541, "lng": -121.9552, "label": "Palo Alto Networks (Santa Clara, CA)" },
  "mandiant": { "lat": 38.9586, "lng": -77.3570, "label": "Mandiant (Reston, VA)" },
  "cisco": { "lat": 37.3382, "lng": -121.8863, "label": "Cisco (San Jose, CA)" },
  "fortinet": { "lat": 37.3688, "lng": -122.0363, "label": "Fortinet (Sunnyvale, CA)" },
  "fireeye": { "lat": 37.4323, "lng": -121.8996, "label": "FireEye (Milpitas, CA)" },
  "vmware": { "lat": 37.4019, "lng": -121.9420, "label": "VMware (Palo Alto, CA)" },
  "broadcom": { "lat": 37.4019, "lng": -121.9420, "label": "Broadcom (Palo Alto, CA)" },
  "intel": { "lat": 37.3875, "lng": -121.9636, "label": "Intel (Santa Clara, CA)" },
  "nvidia": { "lat": 37.3707, "lng": -121.9632, "label": "NVIDIA (Santa Clara, CA)" },
  "ibm": { "lat": 41.1115, "lng": -73.7204, "label": "IBM (Armonk, NY)" },
  "oracle": { "lat": 30.2672, "lng": -97.7431, "label": "Oracle (Austin, TX)" },
  "salesforce": { "lat": 37.7749, "lng": -122.4194, "label": "Salesforce (San Francisco, CA)" },
  "sophos": { "lat": 51.5680, "lng": -1.7720, "label": "Sophos (Abingdon, UK)" },
  "trend micro": { "lat": 35.6762, "lng": 139.6503, "label": "Trend Micro (Tokyo, Japan)" },
  "check point": { "lat": 32.0853, "lng": 34.7818, "label": "Check Point (Tel Aviv, Israel)" },
  "checkpoint": { "lat": 32.0853, "lng": 34.7818, "label": "Check Point (Tel Aviv, Israel)" },
  "cyberark": { "lat": 32.1715, "lng": 34.7909, "label": "CyberArk (Petah Tikva, Israel)" },
  "tenable": { "lat": 39.0458, "lng": -76.6413, "label": "Tenable (Columbia, MD)" },
  "qualys": { "lat": 37.2431, "lng": -121.7836, "label": "Qualys (Foster City, CA)" },
  "rapid7": { "lat": 42.3601, "lng": -71.0589, "label": "Rapid7 (Boston, MA)" },
  "sentinelone": { "lat": 37.3861, "lng": -122.0839, "label": "SentinelOne (Mountain View, CA)" },
  "symantec": { "lat": 37.3861, "lng": -122.0839, "label": "Symantec (Mountain View, CA)" },
  "mcafee": { "lat": 37.3382, "lng": -121.8863, "label": "McAfee (San Jose, CA)" },
  "trellix": { "lat": 37.3382, "lng": -121.8863, "label": "Trellix (San Jose, CA)" },
  "zscaler": { "lat": 37.3382, "lng": -121.8863, "label": "Zscaler (San Jose, CA)" },
  "okta": { "lat": 37.7749, "lng": -122.4194, "label": "Okta (San Francisco, CA)" },
  "cloudflare": { "lat": 37.7749, "lng": -122.4194, "label": "Cloudflare (San Francisco, CA)" },
  "splunk": { "lat": 37.7749, "lng": -122.4194, "label": "Splunk (San Francisco, CA)" },
  "elastic": { "lat": 37.3861, "lng": -122.0839, "label": "Elastic (Mountain View, CA)" },
  "datadog": { "lat": 40.7128, "lng": -74.0060, "label": "Datadog (New York, NY)" },
  "snyk": { "lat": 42.3601, "lng": -71.0589, "label": "Snyk (Boston, MA)" },
  "wiz": { "lat": 40.7128, "lng": -74.0060, "label": "Wiz (New York, NY)" },
  "darktrace": { "lat": 52.2053, "lng": 0.1218, "label": "Darktrace (Cambridge, UK)" },
  "bitdefender": { "lat": 44.4268, "lng": 26.1025, "label": "Bitdefender (Bucharest, Romania)" },
  "eset": { "lat": 48.1486, "lng": 17.1077, "label": "ESET (Bratislava, Slovakia)" },
  "f-secure": { "lat": 60.1699, "lng": 24.9384, "label": "F-Secure (Helsinki, Finland)" },
  "withsecure": { "lat": 60.1699, "lng": 24.9384, "label": "WithSecure (Helsinki, Finland)" },
  "avast": { "lat": 50.0755, "lng": 14.4378, "label": "Avast (Prague, Czech Republic)" },
  "norton": { "lat": 33.4484, "lng": -112.0740, "label": "Norton (Tempe, AZ)" },
  "siemens": { "lat": 48.1351, "lng": 11.5820, "label": "Siemens (Munich, Germany)" },
  "sap": { "lat": 49.3065, "lng": 8.6425, "label": "SAP (Walldorf, Germany)" },
  "nokia": { "lat": 60.2055, "lng": 24.6559, "label": "Nokia (Espoo, Finland)" },
  "ericsson": { "lat": 59.3293, "lng": 18.0686, "label": "Ericsson (Stockholm, Sweden)" },
  "kaspersky": { "lat": 55.7558, "lng": 37.6173, "label": "Kaspersky (Moscow, Russia)" },
  "huawei": { "lat": 22.5431, "lng": 114.0579, "label": "Huawei (Shenzhen, China)" },
  "samsung": { "lat": 37.5665, "lng": 126.9780, "label": "Samsung (Seoul, South Korea)" },
  "lg": { "lat": 37.5665, "lng": 126.9780, "label": "LG (Seoul, South Korea)" },
  "sony": { "lat": 35.6585, "lng": 139.7454, "label": "Sony (Tokyo, Japan)" },
  "tencent": { "lat": 22.5431, "lng": 114.0579, "label": "Tencent (Shenzhen, China)" },
  "alibaba": { "lat": 30.2741, "lng": 120.1551, "label": "Alibaba (Hangzhou, China)" },
  "baidu": { "lat": 39.9042, "lng": 116.4074, "label": "Baidu (Beijing, China)" },
  "bytedance": { "lat": 39.9042, "lng": 116.4074, "label": "ByteDance (Beijing, China)" },
  "tiktok": { "lat": 39.9042, "lng": 116.4074, "label": "TikTok (Beijing, China)" },
  "tsmc": { "lat": 24.8138, "lng": 120.9675, "label": "TSMC (Hsinchu, Taiwan)" },

  "openai": { "lat": 37.7749, "lng": -122.4194, "label": "OpenAI (San Francisco, CA)" },
  "anthropic": { "lat": 37.7749, "lng": -122.4194, "label": "Anthropic (San Francisco, CA)" },
  "deepmind": { "lat": 51.5074, "lng": -0.1278, "label": "DeepMind (London, UK)" },
  "mistral": { "lat": 48.8566, "lng": 2.3522, "label": "Mistral AI (Paris, France)" },
  "mistral ai": { "lat": 48.8566, "lng": 2.3522, "label": "Mistral AI (Paris, France)" },
  "cohere": { "lat": 43.6532, "lng": -79.3832, "label": "Cohere (Toronto, Canada)" },
  "stability ai": { "lat": 51.5074, "lng": -0.1278, "label": "Stability AI (London, UK)" },
  "palantir": { "lat": 39.7392, "lng": -104.9903, "label": "Palantir (Denver, CO)" },
  "github": { "lat": 37.7749, "lng": -122.4194, "label": "GitHub (San Francisco, CA)" },
  "gitlab": { "lat": 37.7749, "lng": -122.4194, "label": "GitLab (San Francisco, CA)" },
  "atlassian": { "lat": -33.8688, "lng": 151.2093, "label": "Atlassian (Sydney, Australia)" },
  "hashicorp": { "lat": 37.7749, "lng": -122.4194, "label": "HashiCorp (San Francisco, CA)" },
  "docker": { "lat": 37.4019, "lng": -121.9420, "label": "Docker (Palo Alto, CA)" },
  "red hat": { "lat": 35.7796, "lng": -78.6382, "label": "Red Hat (Raleigh, NC)" },
  "canonical": { "lat": 51.5074, "lng": -0.1278, "label": "Canonical (London, UK)" },
  "mozilla": { "lat": 37.7749, "lng": -122.4194, "label": "Mozilla (San Francisco, CA)" },

  "cisa": { "lat": 38.9072, "lng": -77.0369, "label": "CISA (Washington DC)" },
  "nsa": { "lat": 39.1087, "lng": -76.7432, "label": "NSA (Fort Meade, MD)" },
  "fbi": { "lat": 38.8951, "lng": -77.0246, "label": "FBI (Washington DC)" },
  "cia": { "lat": 38.9516, "lng": -77.1464, "label": "CIA (Langley, VA)" },
  "dhs": { "lat": 38.8864, "lng": -77.0159, "label": "DHS (Washington DC)" },
  "doj": { "lat": 38.8936, "lng": -77.0250, "label": "DOJ (Washington DC)" },
  "nist": { "lat": 39.1399, "lng": -77.2160, "label": "NIST (Gaithersburg, MD)" },
  "mitre": { "lat": 38.7509, "lng": -77.4753, "label": "MITRE (McLean, VA)" },
  "enisa": { "lat": 37.9838, "lng": 23.7275, "label": "ENISA (Athens, Greece)" },
  "cert-eu": { "lat": 50.8503, "lng": 4.3517, "label": "CERT-EU (Brussels, Belgium)" },
  "europol": { "lat": 52.0705, "lng": 4.3007, "label": "Europol (The Hague, Netherlands)" },
  "interpol": { "lat": 45.7640, "lng": 4.8357, "label": "INTERPOL (Lyon, France)" },
  "nato": { "lat": 50.8763, "lng": 4.4223, "label": "NATO (Brussels, Belgium)" },
  "eu": { "lat": 50.8503, "lng": 4.3517, "label": "European Union (Brussels)" },
  "european union": { "lat": 50.8503, "lng": 4.3517, "label": "European Union (Brussels)" },
  "european commission": { "lat": 50.8431, "lng": 4.3825, "label": "European Commission (Brussels)" },
  "european parliament": { "lat": 48.5964, "lng": 7.7666, "label": "European Parliament (Strasbourg)" },
  "un": { "lat": 40.7489, "lng": -73.9680, "label": "United Nations (New York)" },
  "united nations": { "lat": 40.7489, "lng": -73.9680, "label": "United Nations (New York)" },
  "icrc": { "lat": 46.2044, "lng": 6.1432, "label": "ICRC (Geneva, Switzerland)" },
  "ccb": { "lat": 50.8503, "lng": 4.3517, "label": "CCB (Brussels, Belgium)" },
  "centre for cybersecurity belgium": { "lat": 50.8503, "lng": 4.3517, "label": "CCB (Brussels, Belgium)" },
  "ncsc": { "lat": 51.5074, "lng": -0.1278, "label": "NCSC (London, UK)" },
  "bsi": { "lat": 50.7374, "lng": 7.0982, "label": "BSI (Bonn, Germany)" },
  "anssi": { "lat": 48.8566, "lng": 2.3522, "label": "ANSSI (Paris, France)" },

  "pentagon": { "lat": 38.8719, "lng": -77.0563, "label": "Pentagon (Arlington, VA)" },
  "white house": { "lat": 38.8977, "lng": -77.0365, "label": "White House (Washington DC)" },
  "kremlin": { "lat": 55.7520, "lng": 37.6175, "label": "Kremlin (Moscow, Russia)" },
  "silicon valley": { "lat": 37.3875, "lng": -122.0575, "label": "Silicon Valley" },

  "us-east-1": { "lat": 39.0438, "lng": -77.4874, "label": "AWS US East (N. Virginia)" },
  "us-east": { "lat": 39.0438, "lng": -77.4874, "label": "US East (Virginia)" },
  "us-west-1": { "lat": 37.3382, "lng": -121.8863, "label": "AWS US West (N. California)" },
  "us-west-2": { "lat": 45.5945, "lng": -121.1787, "label": "AWS US West (Oregon)" },
  "us-west": { "lat": 45.5945, "lng": -121.1787, "label": "US West (Oregon)" },
  "eu-west-1": { "lat": 53.3498, "lng": -6.2603, "label": "AWS EU West (Ireland)" },
  "eu-west": { "lat": 53.3498, "lng": -6.2603, "label": "EU West (Ireland)" },
  "eu-central-1": { "lat": 50.1109, "lng": 8.6821, "label": "AWS EU Central (Frankfurt)" },
  "eu-central": { "lat": 50.1109, "lng": 8.6821, "label": "EU Central (Frankfurt)" },
  "eu-north-1": { "lat": 59.3293, "lng": 18.0686, "label": "AWS EU North (Stockholm)" },
  "ap-southeast-1": { "lat": 1.3521, "lng": 103.8198, "label": "AWS AP Southeast (Singapore)" },
  "ap-northeast-1": { "lat": 35.6762, "lng": 139.6503, "label": "AWS AP Northeast (Tokyo)" },
  "ap-south-1": { "lat": 19.0760, "lng": 72.8777, "label": "AWS AP South (Mumbai)" },

  "global": null,
  "worldwide": null,
  "internet": null,
  "online": null,
  "remote": null,
  "virtual": null,
  "cloud": null,
  "unknown": null,
  "n/a": null,
  "undisclosed": null,
  "multiple locations": null,
  "various": null
}